{"Eastern":{"city":"Eastern","coordinates":{"longitude":114.21944444444445,"latitude":22.282777777777778}},"Tuen Mun":{"city":"N.T.","coordinates":{"longitude":113.97666666666667,"latitude":22.391111111111112}},"Tung Chung":{"city":"New Territories","coordinates":{"longitude":113.94361111111111,"latitude":22.28888888888889}},"Mong Kok":{"city":"Kowloon","coordinates":{"longitude":114.16833333333334,"latitude":22.322499999999998}},"Central":{"city":"Central","coordinates":{"longitude":114.15805555555556,"latitude":22.281944444444445}},"Tap Mun":{"city":"Tap Mun Police Post","coordinates":{"longitude":114.36083333333333,"latitude":22.47138888888889}},"Causeway Bay":{"city":"Causeway Bay","coordinates":{"longitude":114.185,"latitude":22.279999999999998}},"Tseung Kwan O":{"city":"Sai Kung","coordinates":{"longitude":114.25944444444444,"latitude":22.317777777777778}},"Sham Shui Po":{"city":"Kowloon","coordinates":{"longitude":114.15916666666668,"latitude":22.330277777777777}},"Kwai Chung":{"city":"New Territories","coordinates":{"longitude":114.12972222222221,"latitude":22.357222222222223}},"Tai Po":{"city":"New Territories","coordinates":{"longitude":114.16444444444446,"latitude":22.450833333333332}},"Sha Tin":{"city":"New Territories","coordinates":{"longitude":114.18444444444445,"latitude":22.37638888888889}},"Yuen Long":{"city":"New Territories","coordinates":{"longitude":114.02277777777778,"latitude":22.44527777777778}},"Central/Western":{"city":"Central & Western","coordinates":{"longitude":114.14444444444445,"latitude":22.285}},"Kwun Tong":{"city":"Kowloon","coordinates":{"longitude":114.22472222222223,"latitude":22.313333333333333}},"Tsuen Wan":{"city":"New Territories","coordinates":{"longitude":114.11444444444444,"latitude":22.371666666666666}}}